     3.05           OBSERVATION DATA    M: Mixed            RINEX VERSION / TYPE
                                        20260613 202301 UTC PGM / RUN BY / DATE 
                                                            MARKER NAME         
                                                            MARKER NUMBER       
                                                            MARKER TYPE         
                                                            OBSERVER / AGENCY   
                                                            REC # / TYPE / VERS 
                                                            ANT # / TYPE        
        0.0000        0.0000        0.0000                  APPROX POSITION XYZ 
        0.0000        0.0000        0.0000                  ANTENNA: DELTA H/E/N
G   16 C1C L1C D1C S1C C2X L2X D2X S2X C2W L2W D2W S2W C5I  SYS / # / OBS TYPES 
       L5I D5I S5I                                          SYS / # / OBS TYPES 
R   12 C1C L1C D1C S1C C2C L2C D2C S2C C2P L2P D2P S2P      SYS / # / OBS TYPES 
E   24 C1B L1B D1B S1B C5I L5I D5I S5I C7I L7I D7I S7I C5Q  SYS / # / OBS TYPES 
       L5Q D5Q S5Q C7Q L7Q D7Q S7Q C6B L6B D6B S6B          SYS / # / OBS TYPES 
J   16 C1C L1C D1C S1C C2X L2X D2X S2X C2W L2W D2W S2W C5I  SYS / # / OBS TYPES 
       L5I D5I S5I                                          SYS / # / OBS TYPES 
C   24 C2I L2I D2I S2I C6I L6I D6I S6I C7I L7I D7I S7I C1D  SYS / # / OBS TYPES 
       L1D D1D S1D C5I L5I D5I S5I C5D L5D D5D S5D          SYS / # / OBS TYPES 
  2026     6    13    20    22    5.8000000     GPS         TIME OF FIRST OBS   
  2026     6    13    20    30   33.8000000     GPS         TIME OF LAST OBS    
G                                                           SYS / PHASE SHIFT   
R                                                           SYS / PHASE SHIFT   
E                                                           SYS / PHASE SHIFT   
J                                                           SYS / PHASE SHIFT   
C                                                           SYS / PHASE SHIFT   
  0                                                         GLONASS SLOT / FRQ #
 C1C    0.000 C1P    0.000 C2C    0.000 C2P    0.000        GLONASS COD/PHS/BIS 
                                                            END OF HEADER       
                                                                                                                                                                                                                                                                                                                                                                                                                                                                                                                                                                                                                                                                                                                                                                                                                                                                                                                                                                                                                                                                                                                                                                                                                                                                                                                                                                                                                                                                                                                                                                                                                                                                                                                                                                                                                                                                                                                                                                                                                                                                                                                                                                                                                                                                                                                                                                                                                                                                                                                                                                                                                                                                                                                                                                                                                                                                                                                                                                                                                                                                                                                                                                                                                                                                                                                                                                                                                                                                                                                                                                                                                                                                                                                                                                                                                                                                                                                                                                                                                                                                                                                                                                                                                                                                                                                                                                                                                                                                                                                                                                                                                                                                                                                                                                                                                                                                                                                                                                                                                                                                                                                                                                                                                                                                                                                                                                                                                                                                                                                                                                                                                                                                                                                                                                                                                                                                                                                                                                                                                                                                                  
> 2026  6 13 20 22  5.8000000  0 20                     
R 5  19511734.773   104301404.537        1666.644          48.000    19511719.852    81123256.677        1296.241          42.000                                                                  
R 6  22300283.812   118998589.494        4691.269          46.000    22300274.395    92554426.260        3648.853          40.000                                                                  
R 8  20964255.419   112262637.5772      -2280.270          45.000    20964239.247    87315317.6472      -1773.691          40.000                                                                  
R19  21162595.945   113205617.754       -2012.918          45.000    21162582.525    88048751.028       -1565.580          43.000                                                                  
R20  19579640.777   104701140.159        1557.183          46.000    19579626.106    81434156.300        1211.218          43.000                                                                  
R21  22140769.349   118479730.321        4057.648          44.000    22140756.429    92150843.553        3155.927          41.000                                                                  
E 7  24899003.000   130845137.785        2383.250          42.000    24899010.362    97709065.282        1779.887          43.000    24898993.208   100257931.987        1826.153          46.000                                                                                                                                                                                                  
E 8  25816113.199   135664593.925        -378.748          41.000    25816119.597   101307999.206        -282.760          40.000    25816102.621   103950747.106        -290.117          44.000                                                                                                                                                                                                  
E13  25408110.781   133520522.427       -1069.544          40.000    25408118.518    99706915.644        -798.737          41.000    25408101.632   102307896.159        -819.612          46.000                                                                                                                                                                                                  
E26  23591250.907   123972860.012         986.492          42.000    23591255.159    92577153.146         736.566          43.000    23591238.362    94992141.861         755.871          47.000                                                                                                                                                                                                  
E31  27081257.805   142312973.480         266.528          40.000    27081266.954   106272709.041         199.106          41.000    27081249.371   109044969.114         204.316          44.000                                                                                                                                                                                                  
E33  26283568.359   138121078.897        2684.984          38.000    26283574.560   103142394.318        2005.071          41.000    26283556.887   105832993.975        2057.245          43.000                                                                                                                                                                                                  
J 2  43525586.232   228728493.256         778.405          40.000    43525581.747   178229977.257         606.377          40.000                                                                    43525593.719   170803778.498         581.114          38.000  
C12  26061716.755   135710210.263        3940.865          40.000    26061718.828   110275666.455        3202.350          38.000                                                                                                                                                                                                                                                                  
C20  24752414.738   128892319.979        3660.300          45.000    24752408.681   104735544.088        2974.258          43.000                                                                                                                                    24752414.828   104735570.258        2974.331          40.000                                                                  
C29  23955236.311   124741200.618        3185.746          44.000    23955231.843   101362426.549        2588.722          42.000                                                                                                                                    23955235.507   101362443.812        2588.697          40.000                                                                  
C30  21672619.423   112855016.947         566.990          47.000    21672617.565    91703938.091         460.761          44.000                                                                                                                                    21672620.353    91703949.752         460.895          41.000                                                                  
C32  22135166.981   115263623.539         849.927          47.000    22135164.694    93661126.626         690.588          44.000                                                                                                                                    22135169.447    93661145.961         690.741          44.000                                                                  
C41  24692093.491   128578213.498       -2103.459          43.000    24692096.958   104480342.948       -1709.383          42.000                                                                                                                                    24692104.481   104480375.227       -1709.398          40.000                                                                  
C58  42849200.952   223127039.713       -2522.255          36.000                                                                                                                                                                                                                                                                                                                                  
> 2026  6 13 20 22  6.0000000  0 29                     
G 8  23799722.972   125068396.433        3412.657          43.000    23799720.721    97455894.457        2659.272          42.000                                                                    23799729.441    93395251.372        2548.374          41.000  
G10  21567714.946   113339104.926        1988.328          47.000    21567709.979    88316159.203        1549.166          43.000                                                                    21567717.091    84636355.821        1484.869          42.000  
G15  22423764.586   117837674.817       -2050.033          44.000    22423757.956    91821530.304       -1597.513          41.000                                                                                                                                  
G16  24459170.723   128533803.112       -2143.671          37.000                                                                                                                                                                                                  
G18  21500343.333   112985057.219       -1079.032          43.000    21500336.847    88040283.701        -840.996          47.000                                                                    21500348.194    84371985.542        -805.929          44.000  
G23  20492537.175   107689001.864           2.930          43.000    20492529.634    83913484.054           2.383          48.000                                                                    20492542.214    80417138.167           2.216          46.000  
G24  24443847.107   128453278.790        3020.384          39.000    24443846.481   100093470.125        2353.458          40.000                                                                    24443857.096    95922944.886        2255.225          39.000  
G27  21621267.943   113620527.225        1737.194          42.000    21621263.083    88535460.131        1353.716          43.000                                                                    21621271.482    84846514.038        1297.167          43.000  
G32  24422639.632   128341806.058        4254.221          34.000                                                                                                                                                                                                  
